[
    {
        "id": 1,
        "name": "Butchery A",
        "latitude": 40.7128,
        "longitude": -74.0060,
        "address": "123 Main St, City A"
    },
    {
        "id": 2,
        "name": "Butchery B",
        "latitude": 34.0522,
        "longitude": -118.2437,
        "address": "456 Elm St, City B"
    },
    {
        "id": 3,
        "name": "Butchery C",
        "latitude": 51.5074,
        "longitude": -0.1278,
        "address": "789 Oak St, City C"
    },
    {
        "id": 4,
        "name": "Butchery D",
        "latitude": 48.8566,
        "longitude": 2.3522,
        "address": "987 Pine St, City D"
    },
    {
        "id": 5,
        "name": "Butchery E",
        "latitude": 52.5200,
        "longitude": 13.4050,
        "address": "246 Maple St, City E"
    },
    {
        "id": 6,
        "name": "Butchery F",
        "latitude": 40.7128,
        "longitude": -74.0060,
        "address": "123 Main St, City F"
    },
    {
        "id": 7,
        "name": "Butchery G",
        "latitude": 34.0522,
        "longitude": -118.2437,
        "address": "456 Elm St, City G"
    },
    {
        "id": 8,
        "name": "Butchery H",
        "latitude": 51.5074,
        "longitude": -0.1278,
        "address": "789 Oak St, City H"
    },
    {
        "id": 9,
        "name": "Butchery I",
        "latitude": 48.8566,
        "longitude": 2.3522,
        "address": "987 Pine St, City I"
    },
    {
        "id": 10,
        "name": "Butchery J",
        "latitude": 52.5200,
        "longitude": 13.4050,
        "address": "246 Maple St, City J"
    }
]